{
    "postOffice": {
        "title": "Kőszeg 1-es Posta",
        "address": "Várkör 65.",
        "phone": "+36 94 360 068",
        "hours": [
            "Hétfő: 08:00 – 18:00",
            "Kedd – Péntek: 08:00 – 16:00",
            "Hétvége: Zárva"
        ]
    },
    "government": {
        "title": "Kormányablak Kőszeg",
        "address": "Jurisics tér 6.",
        "phone": "1818",
        "hours": [
            "Hétfő: 8:00 – 18:00",
            "Kedd: 8:00 – 16:00",
            "Szerda: 8:00 – 18:00",
            "Csütörtök: 8:00 – 16:00",
            "Péntek: 8:00 – 12:00"
        ],
        "note": "NAV ügyfélszolgálat: Kedd és Csütörtök ügyfélfogadási időben."
    },
    "market": {
        "title": "Termelői Piac",
        "address": "Kossuth Lajos utca 3.",
        "hours": [
            "Szerda: 06:00 – 12:00 (kb.)",
            "Szombat: 06:00 – 12:00 (kb.)"
        ],
        "description": "Zöldség, gyümölcs, virág, helyi termékek."
    },
    "utilities": [
        {
            "name": "E.ON Áram (Hibabejelentő)",
            "phone": "+36 80 533 533",
            "description": "Folyamatosan hívható (Életveszély/Zavar)"
        },
        {
            "name": "Vasivíz (Hibabejelentő)",
            "phone": "+36 80 201 232",
            "description": "Víz és szennyvíz hibák. Ingyenes zöld szám."
        },
        {
            "name": "Kéményseprők (Katasztrófavédelem)",
            "phone": "1818",
            "description": "Mellék: 9, majd 1. (Időpontfoglalás)"
        }
    ],
    "shops": [
        {
            "name": "Tesco Szupermarket",
            "address": "Pogányi út 7.",
            "hours": [
                "Hétfő-Szombat: 07:00 – 21:00",
                "Vasárnap: 07:00 – 19:00"
            ]
        },
        {
            "name": "Penny Market",
            "address": "Pogányi út 1.",
            "hours": [
                "Hétfő-Szombat: 07:00 – 20:00",
                "Vasárnap: 07:00 – 18:00"
            ]
        },
        {
            "name": "SPAR Szupermarket",
            "address": "Rákóczi Ferenc utca 80-82.",
            "hours": [
                "Hétfő-Péntek: 06:30 – 20:00",
                "Szombat: 06:30 – 17:00",
                "Vasárnap: 07:00 – 13:00"
            ]
        },
        {
            "name": "Coop (Rohonci út)",
            "address": "Rohonci u. 37-39.",
            "hours": [
                "Hétfő-Péntek: 06:00 – 19:00",
                "Szombat: 06:00 – 18:00",
                "Vasárnap: Zárva"
            ]
        },
        {
            "name": "Coop (Pék utca)",
            "address": "Pék u. 20.",
            "hours": [
                "Hétfő: 06:00 – 18:00",
                "Kedd-Péntek: 06:00 – 19:00",
                "Szombat: 06:00 – 15:00"
            ]
        }
    ]
}